{
  "dealerships": {
    "statusCode": 200,
    "body": [
      {
        "_id": "7097ca214f92d150f63609557ed124c7",
        "_rev": "1-34e7ebd07643af43db578a46ee1d6365",
        "id": 1,
        "city": "El Paso",
        "state": "Texas",
        "st": "TX",
        "address": "3 Nova Court",
        "zip": "88563",
        "lat": 31.6948,
        "long": -106.3,
        "short_name": "Holdlamis",
        "full_name": "Holdlamis Car Dealership"
      },
      {
        "_id": "7097ca214f92d150f63609557ed12d46",
        "_rev": "1-d1778a396ca8cb0ef2966a9854eb93ee",
        "id": 2,
        "city": "Minneapolis",
        "state": "Minnesota",
        "st": "MN",
        "address": "6337 Butternut Crossing",
        "zip": "55402",
        "lat": 44.9762,
        "long": -93.2759,
        "short_name": "Temp",
        "full_name": "Temp Car Dealership"
      },
      {
        "_id": "7097ca214f92d150f63609557ed131c5",
        "_rev": "1-cc5d5c13aa879d1cef8253dfa1dce77d",
        "id": 3,
        "city": "Birmingham",
        "state": "Alabama",
        "st": "AL",
        "address": "9477 Twin Pines Center",
        "zip": "35285",
        "lat": 33.5446,
        "long": -86.9292,
        "short_name": "Sub-Ex",
        "full_name": "Sub-Ex Car Dealership"
      },
      {
        "_id": "7097ca214f92d150f63609557ed13b5f",
        "_rev": "1-a79013b42c83451d49e7e3aba4a575e3",
        "id": 4,
        "city": "Dallas",
        "state": "Texas",
        "st": "TX",
        "address": "85800 Hazelcrest Circle",
        "zip": "75241",
        "lat": 32.6722,
        "long": -96.7774,
        "short_name": "Solarbreeze",
        "full_name": "Solarbreeze Car Dealership"
      },
      {
        "_id": "7097ca214f92d150f63609557ed1476e",
        "_rev": "1-c16dcd97a91588c9866814f61ea72751",
        "id": 5,
        "city": "Baltimore",
        "state": "Maryland",
        "st": "MD",
        "address": "93 Golf Course Pass",
        "zip": "21203",
        "lat": 39.2847,
        "long": -76.6205,
        "short_name": "Regrant",
        "full_name": "Regrant Car Dealership"
      },
      {
        "_id": "7097ca214f92d150f63609557ed14897",
        "_rev": "1-e37424d3be7785cbdbc4ed12ec29b343",
        "id": 6,
        "city": "Wilkes Barre",
        "state": "Pennsylvania",
        "st": "PA",
        "address": "2 Burrows Hill",
        "zip": "18763",
        "lat": 41.2722,
        "long": -75.8801,
        "short_name": "Stronghold",
        "full_name": "Stronghold Car Dealership"
      },
      {
        "_id": "7097ca214f92d150f63609557ed157a6",
        "_rev": "1-96db320a9c736d2e08e8b1bf873d0e04",
        "id": 7,
        "city": "Pueblo",
        "state": "Colorado",
        "st": "CO",
        "address": "9 Cambridge Park",
        "zip": "81010",
        "lat": 38.1286,
        "long": -104.5523,
        "short_name": "Job",
        "full_name": "Job Car Dealership"
      },
      {
        "_id": "7097ca214f92d150f63609557ed16157",
        "_rev": "1-4e4889794e42a9e092c1442118889232",
        "id": 8,
        "city": "Topeka",
        "state": "Kansas",
        "st": "KS",
        "address": "288 Larry Place",
        "zip": "66642",
        "lat": 39.0429,
        "long": -95.7697,
        "short_name": "Bytecard",
        "full_name": "Bytecard Car Dealership"
      },
      {
        "_id": "7097ca214f92d150f63609557ed16b44",
        "_rev": "1-63f1a1984f40f1de1eabceaec90f7fb6",
        "id": 9,
        "city": "Dallas",
        "state": "Texas",
        "st": "TX",
        "address": "253 Hanson Junction",
        "zip": "75216",
        "lat": 32.7086,
        "long": -96.7955,
        "short_name": "Job",
        "full_name": "Job Car Dealership"
      },
      {
        "_id": "7097ca214f92d150f63609557ed17586",
        "_rev": "1-1510e7ca88f225bef573a98f9cb45452",
        "id": 10,
        "city": "Washington",
        "state": "District of Columbia",
        "st": "DC",
        "address": "108 Memorial Pass",
        "zip": "20005",
        "lat": 38.9067,
        "long": -77.0312,
        "short_name": "Alphazap",
        "full_name": "Alphazap Car Dealership"
      },
      {
        "_id": "7097ca214f92d150f63609557ed1761e",
        "_rev": "1-25e4e732c54e2138a7d6c344f7c906f4",
        "id": 11,
        "city": "Carol Stream",
        "state": "Illinois",
        "st": "IL",
        "address": "8108 Dryden Court",
        "zip": "60351",
        "lat": 41.9166,
        "long": -88.1208,
        "short_name": "Rank",
        "full_name": "Rank Car Dealership"
      },
      {
        "_id": "7097ca214f92d150f63609557ed17df6",
        "_rev": "1-87eca1b09104f3efd4373e4edfacbb38",
        "id": 12,
        "city": "Silver Spring",
        "state": "Maryland",
        "st": "MD",
        "address": "168 Pawling Lane",
        "zip": "20918",
        "lat": 39.144,
        "long": -77.2076,
        "short_name": "Tin",
        "full_name": "Tin Car Dealership"
      },
      {
        "_id": "7097ca214f92d150f63609557ed18270",
        "_rev": "1-97762bda9286ea2d1218a64383ab5370",
        "id": 13,
        "city": "Baltimore",
        "state": "Maryland",
        "st": "MD",
        "address": "452 Fair Oaks Drive",
        "zip": "21275",
        "lat": 39.2847,
        "long": -76.6205,
        "short_name": "Y-Solowarm",
        "full_name": "Y-Solowarm Car Dealership"
      },
      {
        "_id": "7097ca214f92d150f63609557ed18e62",
        "_rev": "1-7828b3ead20b34e43a00d8305fee6cd2",
        "id": 14,
        "city": "San Francisco",
        "state": "California",
        "st": "CA",
        "address": "2109 Scott Parkway",
        "zip": "94147",
        "lat": 37.7848,
        "long": -122.7278,
        "short_name": "It",
        "full_name": "It Car Dealership"
      },
      {
        "_id": "7097ca214f92d150f63609557ed195ca",
        "_rev": "1-018064051a79bae4a38595f6d712f1f4",
        "id": 15,
        "city": "San Antonio",
        "state": "Texas",
        "st": "TX",
        "address": "5057 Pankratz Hill",
        "zip": "78225",
        "lat": 29.3875,
        "long": -98.5245,
        "short_name": "Tempsoft",
        "full_name": "Tempsoft Car Dealership"
      },
      {
        "_id": "7097ca214f92d150f63609557ed19700",
        "_rev": "1-cfc990372e5aead5c1461c5363ab9661",
        "id": 16,
        "city": "El Paso",
        "state": "Texas",
        "st": "TX",
        "address": "0 Rieder Trail",
        "zip": "79994",
        "lat": 31.6948,
        "long": -106.3,
        "short_name": "Treeflex",
        "full_name": "Treeflex Car Dealership"
      },
      {
        "_id": "7097ca214f92d150f63609557ed1a605",
        "_rev": "1-ee4a7286b4515e5c4ef7fb152c6dc37d",
        "id": 17,
        "city": "San Jose",
        "state": "California",
        "st": "CA",
        "address": "7670 American Ash Drive",
        "zip": "95138",
        "lat": 37.2602,
        "long": -121.7709,
        "short_name": "Home Ing",
        "full_name": "Home Ing Car Dealership"
      },
      {
        "_id": "7097ca214f92d150f63609557ed1b4e7",
        "_rev": "1-2c1ccca9532d409320038cb83d4f80d6",
        "id": 18,
        "city": "Whittier",
        "state": "California",
        "st": "CA",
        "address": "4 Pearson Avenue",
        "zip": "90605",
        "lat": 33.9413,
        "long": -118.0356,
        "short_name": "Bitchip",
        "full_name": "Bitchip Car Dealership"
      },
      {
        "_id": "7097ca214f92d150f63609557ed1b8a1",
        "_rev": "1-4467795f20d7931f351651580bc75d0d",
        "id": 19,
        "city": "Hialeah",
        "state": "Florida",
        "st": "FL",
        "address": "93 Monument Circle",
        "zip": "33013",
        "lat": 25.8594,
        "long": -80.2725,
        "short_name": "Otcom",
        "full_name": "Otcom Car Dealership"
      },
      {
        "_id": "7097ca214f92d150f63609557ed1c6f2",
        "_rev": "1-3518514abb91e959ae2c73d2a0468962",
        "id": 20,
        "city": "Detroit",
        "state": "Michigan",
        "st": "MI",
        "address": "4580 Waubesa Lane",
        "zip": "48224",
        "lat": 42.4098,
        "long": -82.9441,
        "short_name": "Subin",
        "full_name": "Subin Car Dealership"
      },
      {
        "_id": "7097ca214f92d150f63609557ed1d4ca",
        "_rev": "1-3f78374abc08662f7f9bde1cc4b726a6",
        "id": 21,
        "city": "San Francisco",
        "state": "California",
        "st": "CA",
        "address": "046 Mockingbird Junction",
        "zip": "94154",
        "lat": 37.7848,
        "long": -122.7278,
        "short_name": "Andalax",
        "full_name": "Andalax Car Dealership"
      },
      {
        "_id": "7097ca214f92d150f63609557ed1e306",
        "_rev": "1-cd8b9f26a5f3445ac312f1242a67fe6b",
        "id": 22,
        "city": "Fort Lauderdale",
        "state": "Florida",
        "st": "FL",
        "address": "45737 Butternut Lane",
        "zip": "33330",
        "lat": 26.0663,
        "long": -80.3339,
        "short_name": "Y-Solowarm",
        "full_name": "Y-Solowarm Car Dealership"
      },
      {
        "_id": "7097ca214f92d150f63609557ed1f0d8",
        "_rev": "1-35acfb718ff5e840b6dfa2234635a9cc",
        "id": 23,
        "city": "Des Moines",
        "state": "Iowa",
        "st": "IA",
        "address": "21425 Bartelt Pass",
        "zip": "50936",
        "lat": 41.6727,
        "long": -93.5722,
        "short_name": "Bitchip",
        "full_name": "Bitchip Car Dealership"
      },
      {
        "_id": "7097ca214f92d150f63609557ed1f432",
        "_rev": "1-f64046127bcb266e6d8621a6e0761edf",
        "id": 24,
        "city": "Utica",
        "state": "New York",
        "st": "NY",
        "address": "408 Delaware Circle",
        "zip": "13505",
        "lat": 43.0872,
        "long": -75.2603,
        "short_name": "Aerified",
        "full_name": "Aerified Car Dealership"
      },
      {
        "_id": "7097ca214f92d150f63609557ed202bd",
        "_rev": "1-b9645c81abd6ad8111bbd1c3adddc211",
        "id": 25,
        "city": "Washington",
        "state": "District of Columbia",
        "st": "DC",
        "address": "6505 Melrose Junction",
        "zip": "20580",
        "lat": 38.8933,
        "long": -77.0146,
        "short_name": "Opela",
        "full_name": "Opela Car Dealership"
      },
      {
        "_id": "7097ca214f92d150f63609557ed21224",
        "_rev": "1-4ca2683a2bc5d6adc9d7f17d6a6d3815",
        "id": 26,
        "city": "Pittsburgh",
        "state": "Pennsylvania",
        "st": "PA",
        "address": "306 Jenna Parkway",
        "zip": "15279",
        "lat": 40.4344,
        "long": -80.0248,
        "short_name": "Flowdesk",
        "full_name": "Flowdesk Car Dealership"
      },
      {
        "_id": "7097ca214f92d150f63609557ed21fe4",
        "_rev": "1-0d1ad5ed7cfde86fde2b69345e3b8163",
        "id": 27,
        "city": "San Antonio",
        "state": "Texas",
        "st": "TX",
        "address": "95321 Superior Hill",
        "zip": "78245",
        "lat": 29.4189,
        "long": -98.6895,
        "short_name": "Namfix",
        "full_name": "Namfix Car Dealership"
      },
      {
        "_id": "7097ca214f92d150f63609557ed22998",
        "_rev": "1-fdc867c57002345cfe2e0d17fbb0d4b1",
        "id": 28,
        "city": "Hialeah",
        "state": "Florida",
        "st": "FL",
        "address": "5458 Maple Way",
        "zip": "33018",
        "lat": 25.9098,
        "long": -80.3889,
        "short_name": "Fixflex",
        "full_name": "Fixflex Car Dealership"
      },
      {
        "_id": "7097ca214f92d150f63609557ed22cfd",
        "_rev": "1-a017eedc4af988246172b38580dd1bc5",
        "id": 29,
        "city": "San Francisco",
        "state": "California",
        "st": "CA",
        "address": "9 Harper Circle",
        "zip": "94110",
        "lat": 37.7509,
        "long": -122.4153,
        "short_name": "Fix San",
        "full_name": "Fix San Car Dealership"
      },
      {
        "_id": "7097ca214f92d150f63609557ed22ed0",
        "_rev": "1-bc91c48db51d66e73a2e6b759f566014",
        "id": 30,
        "city": "Houston",
        "state": "Texas",
        "st": "TX",
        "address": "5423 Spaight Road",
        "zip": "77218",
        "lat": 29.834,
        "long": -95.4342,
        "short_name": "Opela",
        "full_name": "Opela Car Dealership"
      },
      {
        "_id": "7097ca214f92d150f63609557ed233b6",
        "_rev": "1-9000d475bd23c5fd22121b16319db543",
        "id": 31,
        "city": "New York City",
        "state": "New York",
        "st": "NY",
        "address": "5 Northfield Pass",
        "zip": "10131",
        "lat": 40.7808,
        "long": -73.9772,
        "short_name": "Fintone",
        "full_name": "Fintone Car Dealership"
      },
      {
        "_id": "7097ca214f92d150f63609557ed23888",
        "_rev": "1-cdbfaad14f48d0bd80b435460a802b38",
        "id": 32,
        "city": "Wilkes Barre",
        "state": "Pennsylvania",
        "st": "PA",
        "address": "3 Carey Junction",
        "zip": "18768",
        "lat": 41.2722,
        "long": -75.8801,
        "short_name": "Subin",
        "full_name": "Subin Car Dealership"
      },
      {
        "_id": "7097ca214f92d150f63609557ed245fa",
        "_rev": "1-c6418f907fbb6365e6a996004b7100f0",
        "id": 33,
        "city": "Des Moines",
        "state": "Iowa",
        "st": "IA",
        "address": "627 Cottonwood Circle",
        "zip": "50335",
        "lat": 41.6727,
        "long": -93.5722,
        "short_name": "Tres-Zap",
        "full_name": "Tres-Zap Car Dealership"
      },
      {
        "_id": "7097ca214f92d150f63609557ed24795",
        "_rev": "1-4d8add6ff98d59554709f3bd95e0b7fa",
        "id": 34,
        "city": "Silver Spring",
        "state": "Maryland",
        "st": "MD",
        "address": "8 Green Hill",
        "zip": "20904",
        "lat": 39.0668,
        "long": -76.9969,
        "short_name": "Gembucket",
        "full_name": "Gembucket Car Dealership"
      },
      {
        "_id": "7097ca214f92d150f63609557ed24893",
        "_rev": "1-046cb455b152448daea503bc1fb84941",
        "id": 35,
        "city": "Seattle",
        "state": "Washington",
        "st": "WA",
        "address": "9 Beilfuss Trail",
        "zip": "98158",
        "lat": 47.4497,
        "long": -122.3076,
        "short_name": "Treeflex",
        "full_name": "Treeflex Car Dealership"
      },
      {
        "_id": "7097ca214f92d150f63609557ed24e04",
        "_rev": "1-9a5b78f2e289c88181452eae51029f19",
        "id": 36,
        "city": "Vienna",
        "state": "Virginia",
        "st": "VA",
        "address": "311 Paget Alley",
        "zip": "22184",
        "lat": 38.8318,
        "long": -77.2888,
        "short_name": "Latlux",
        "full_name": "Latlux Car Dealership"
      },
      {
        "_id": "7097ca214f92d150f63609557ed259d0",
        "_rev": "1-0938f528ee4ec72ba5710e4f855e3688",
        "id": 37,
        "city": "Detroit",
        "state": "Michigan",
        "st": "MI",
        "address": "152 Moland Lane",
        "zip": "48224",
        "lat": 42.4098,
        "long": -82.9441,
        "short_name": "Ventosanzap",
        "full_name": "Ventosanzap Car Dealership"
      },
      {
        "_id": "7097ca214f92d150f63609557ed25d4f",
        "_rev": "1-6e07d6d5c6d7a616ba7b7358db413d1a",
        "id": 38,
        "city": "Dallas",
        "state": "Texas",
        "st": "TX",
        "address": "821 New Castle Trail",
        "zip": "75226",
        "lat": 32.7887,
        "long": -96.7676,
        "short_name": "Zamit",
        "full_name": "Zamit Car Dealership"
      },
      {
        "_id": "7097ca214f92d150f63609557ed269b1",
        "_rev": "1-aad3e04d9c8755694ad22d3bb6915553",
        "id": 39,
        "city": "Fresno",
        "state": "California",
        "st": "CA",
        "address": "990 Raven Road",
        "zip": "93740",
        "lat": 36.7464,
        "long": -119.6397,
        "short_name": "Stronghold",
        "full_name": "Stronghold Car Dealership"
      },
      {
        "_id": "7097ca214f92d150f63609557ed27866",
        "_rev": "1-50617ded0848567bbdbda0551272923b",
        "id": 40,
        "city": "Merrifield",
        "state": "Virginia",
        "st": "VA",
        "address": "89375 Main Trail",
        "zip": "22119",
        "lat": 38.8318,
        "long": -77.2888,
        "short_name": "Greenlam",
        "full_name": "Greenlam Car Dealership"
      },
      {
        "_id": "7097ca214f92d150f63609557ed278fb",
        "_rev": "1-e258b026351685c07473fd61d7facca1",
        "id": 41,
        "city": "Baltimore",
        "state": "Maryland",
        "st": "MD",
        "address": "9 Sherman Hill",
        "zip": "21275",
        "lat": 39.2847,
        "long": -76.6205,
        "short_name": "Tres-Zap",
        "full_name": "Tres-Zap Car Dealership"
      },
      {
        "_id": "7097ca214f92d150f63609557ed27a98",
        "_rev": "1-a627885eb87bc547ab133dc9ecea681b",
        "id": 42,
        "city": "Jersey City",
        "state": "New Jersey",
        "st": "NJ",
        "address": "62 Manley Point",
        "zip": "07310",
        "lat": 40.7324,
        "long": -74.0431,
        "short_name": "Konklab",
        "full_name": "Konklab Car Dealership"
      },
      {
        "_id": "7097ca214f92d150f63609557ed27d4a",
        "_rev": "1-0ef43a2fc9385b68c4365489004d2b97",
        "id": 43,
        "city": "Atlanta",
        "state": "Georgia",
        "st": "GA",
        "address": "91 Declaration Avenue",
        "zip": "31119",
        "lat": 33.8913,
        "long": -84.0746,
        "short_name": "Opela",
        "full_name": "Opela Car Dealership"
      },
      {
        "_id": "7097ca214f92d150f63609557ed2869b",
        "_rev": "1-2acfaaf786b749f0c71351f6468dfbaa",
        "id": 44,
        "city": "Roanoke",
        "state": "Virginia",
        "st": "VA",
        "address": "0 Northview Point",
        "zip": "24014",
        "lat": 37.2327,
        "long": -79.9463,
        "short_name": "Veribet",
        "full_name": "Veribet Car Dealership"
      },
      {
        "_id": "7097ca214f92d150f63609557ed29305",
        "_rev": "1-759fc681fcdf10e034bbf8accd3acb00",
        "id": 45,
        "city": "Norfolk",
        "state": "Virginia",
        "st": "VA",
        "address": "283 Mockingbird Plaza",
        "zip": "23509",
        "lat": 36.8787,
        "long": -76.2604,
        "short_name": "Konklux",
        "full_name": "Konklux Car Dealership"
      },
      {
        "_id": "7097ca214f92d150f63609557ed29b9e",
        "_rev": "1-76c2eb4c28da3ba6cd385dfb820ed4d0",
        "id": 46,
        "city": "New Orleans",
        "state": "Louisiana",
        "st": "LA",
        "address": "527 Hayes Junction",
        "zip": "70165",
        "lat": 30.033,
        "long": -89.8826,
        "short_name": "Regrant",
        "full_name": "Regrant Car Dealership"
      },
      {
        "_id": "7097ca214f92d150f63609557ed2a3b6",
        "_rev": "1-83ab719b3f039b858e9e7c9c9462748d",
        "id": 47,
        "city": "Stamford",
        "state": "Connecticut",
        "st": "CT",
        "address": "840 Pepper Wood Crossing",
        "zip": "06905",
        "lat": 41.0888,
        "long": -73.5435,
        "short_name": "Prodder",
        "full_name": "Prodder Car Dealership"
      },
      {
        "_id": "7097ca214f92d150f63609557ed2a9b7",
        "_rev": "1-0d5f62c07f25299a7d95b6422f193c63",
        "id": 48,
        "city": "Tucson",
        "state": "Arizona",
        "st": "AZ",
        "address": "48610 Morning Street",
        "zip": "85710",
        "lat": 32.2138,
        "long": -110.824,
        "short_name": "It",
        "full_name": "It Car Dealership"
      },
      {
        "_id": "7097ca214f92d150f63609557ed2b5b9",
        "_rev": "1-b07c086e72acf42643a1a478e2a07feb",
        "id": 49,
        "city": "Athens",
        "state": "Georgia",
        "st": "GA",
        "address": "222 Grasskamp Plaza",
        "zip": "30605",
        "lat": 33.9321,
        "long": -83.3525,
        "short_name": "Veribet",
        "full_name": "Veribet Car Dealership"
      },
      {
        "_id": "7097ca214f92d150f63609557ed2c1ba",
        "_rev": "1-eba2086b344cc60c0a4dd407a6ced307",
        "id": 50,
        "city": "Atlanta",
        "state": "Georgia",
        "st": "GA",
        "address": "76 Clove Trail",
        "zip": "30316",
        "lat": 33.7217,
        "long": -84.3339,
        "short_name": "Aerified",
        "full_name": "Aerified Car Dealership"
      }
    ]
  },
  "review": {
    "statusCode": 201,
    "body": [
      {
        "_id": "310cf471aa853ae545bba2d0be4aa332",
        "_rev": "1-6d3a316e140863cdb147048888d26051",
        "id": 1,
        "name": "Berkly Shepley",
        "dealership": 15,
        "review": "Total grid-enabled service-desk",
        "purchase": true,
        "purchase_date": "07/11/2020",
        "car_make": "Audi",
        "car_model": "A6",
        "car_year": 2010,
        "sentiment": "positive"
      },
      {
        "_id": "310cf471aa853ae545bba2d0be4aa332",
        "_rev": "1-6d3a316e140863cdb147048888d26051",
        "id": 1,
        "name": "Test Name",
        "dealership": 15,
        "review": "This is not good as expected",
        "purchase": true,
        "purchase_date": "07/11/2020",
        "car_make": "Audi",
        "car_model": "A6",
        "car_year": 2010,
        "sentiment": "negative"
      },
      {
        "_id": "310cf471aa853ae545bba2d0be4aa332",
        "_rev": "1-6d3a316e140863cdb147048888d26051",
        "id": 1,
        "name": "Name",
        "dealership": 15,
        "review": "Have an experience as expected",
        "purchase": true,
        "purchase_date": "07/11/2020",
        "car_make": "Audi",
        "car_model": "A6",
        "car_year": 2010,
        "sentiment": "neutral"
      }
    ]
  }
}
